City_ID,City,Lat,Lng,Max Temp,Humidity,Cloudiness,Wind Speed,Country,Date
0,atuona,-9.8,-139.0333,26.0,75,21,8.81,PF,1674469539
1,esperance,-33.8667,121.9,21.74,61,0,8.82,AU,1674469663
2,ushuaia,-54.8,-68.3,12.81,47,75,6.17,AR,1674469664
3,punta arenas,-53.15,-70.9167,12.06,71,0,5.66,CL,1674469664
4,prieska,-29.6641,22.7474,33.65,23,6,3.31,ZA,1674469665
5,mecca,21.4267,39.8261,27.9,40,0,3.74,SA,1674469665
6,gat,31.61,34.7642,22.1,100,0,1.61,IL,1674469666
7,san rafael del sur,11.8485,-86.4384,20.54,73,3,4.43,NI,1674469666
8,vaini,-21.2,-175.2,24.09,100,20,0.0,TO,1674469667
9,rikitea,-23.1203,-134.9692,26.02,78,2,7.81,PF,1674469667
10,ercis,39.0287,43.3586,1.54,54,38,1.59,TR,1674469668
11,linqing,36.8456,115.7117,-3.26,56,97,6.6,CN,1674469668
12,hithadhoo,-0.6,73.0833,27.27,73,22,2.64,MV,1674469669
13,faanui,-16.4833,-151.75,26.48,68,100,3.66,PF,1674469669
14,kuito,-12.3833,16.9333,21.71,56,100,4.01,AO,1674469670
15,yellowknife,62.456,-114.3525,-15.71,85,100,4.12,CA,1674469442
16,tucuman,-26.8241,-65.2226,22.0,88,75,2.57,AR,1674469671
17,arraial do cabo,-22.9661,-42.0278,24.98,88,0,3.6,BR,1674469671
18,hilo,19.7297,-155.09,22.93,89,0,3.09,US,1674469672
19,ponta do sol,32.6667,-17.1,18.96,49,72,3.48,PT,1674469672
20,mandalgovi,45.7625,106.2708,-25.77,64,0,4.8,MN,1674469673
21,pevek,69.7008,170.3133,-30.6,88,96,1.17,RU,1674469673
22,cabo san lucas,22.8909,-109.9124,16.95,82,47,0.45,MX,1674469673
23,kahului,20.8947,-156.47,23.25,82,0,2.06,US,1674469674
24,jamestown,42.097,-79.2353,-0.23,75,100,4.12,US,1674469674
25,iralaya,15.0,-83.2333,24.54,83,12,5.15,HN,1674469675
26,port alfred,-33.5906,26.891,26.21,85,21,2.68,ZA,1674469676
27,new norfolk,-42.7826,147.0587,18.72,77,99,0.45,AU,1674469677
28,port macquarie,-31.4333,152.9167,21.05,84,56,3.77,AU,1674469576
29,bluff,-46.6,168.3333,12.46,64,31,3.3,NZ,1674469678
30,akyab,20.15,92.9,27.75,48,53,7.05,MM,1674469679
31,whakatane,-37.9585,176.9854,18.21,86,85,1.67,NZ,1674469679
32,mahebourg,-20.4081,57.7,27.16,78,75,4.12,MU,1674469680
33,avera,33.194,-82.5271,7.73,79,81,5.77,US,1674469681
34,mar del plata,-38.0023,-57.5575,19.49,84,0,3.58,AR,1674469682
35,launceston,-41.45,147.1667,18.12,81,40,1.54,AU,1674469637
36,nantucket,41.2835,-70.0995,11.03,98,100,6.69,US,1674469683
37,acapulco,16.8634,-99.8901,22.9,78,0,2.57,MX,1674469683
38,alofi,-19.0595,-169.9187,22.94,100,45,0.0,NU,1674469684
39,ayr,55.4627,-4.6339,9.17,93,75,2.57,GB,1674469684
40,albany,42.6001,-73.9662,0.36,93,100,2.57,US,1674469441
41,cape town,-33.9258,18.4232,28.95,58,0,7.72,ZA,1674469495
42,severobaykalsk,55.65,109.3167,-33.71,95,56,1.68,RU,1674469686
43,atar,20.5169,-13.0499,21.83,11,0,4.31,MR,1674469686
44,bengkulu,-3.8004,102.2655,24.64,90,100,3.81,ID,1674469411
45,busselton,-33.65,115.3333,26.81,45,0,9.12,AU,1674469422
46,avarua,-21.2078,-159.775,23.03,94,70,1.54,CK,1674469688
47,la ciotat,43.1748,5.6045,7.93,58,79,4.01,FR,1674469688
48,barrow,71.2906,-156.7887,-22.99,77,20,6.17,US,1674469689
49,qaanaaq,77.484,-69.3632,-32.89,49,0,3.45,GL,1674469689
50,de aar,-30.6497,24.0123,31.42,25,4,6.21,ZA,1674469690
51,las juntas,19.4167,-104.7,15.26,94,2,1.76,MX,1674469690
52,mataura,-46.1927,168.8643,7.39,93,15,0.32,NZ,1674469691
53,touros,-5.1989,-35.4608,27.41,74,10,4.69,BR,1674469691
54,biloela,-24.4167,150.5,23.99,73,75,3.39,AU,1674469692
55,puerto madero,14.7208,-92.4215,21.11,100,0,0.0,MX,1674469692
56,sitka,57.0531,-135.33,6.94,81,100,5.66,US,1674469693
57,mount isa,-20.7333,139.5,29.87,28,18,1.54,AU,1674469694
58,broome,42.2506,-75.833,0.66,91,100,3.09,US,1674469694
59,namibe,-15.1961,12.1522,24.12,78,100,4.01,AO,1674469695
60,tuktoyaktuk,69.4541,-133.0374,-24.37,96,100,3.14,CA,1674469695
61,hamilton,39.1834,-84.5333,0.69,93,100,5.14,US,1674469695
62,college,64.8569,-147.8028,-24.03,73,100,2.06,US,1674469696
63,tuatapere,-46.1333,167.6833,8.92,79,33,0.72,NZ,1674469696
64,san patricio,28.017,-97.5169,16.02,59,0,4.24,US,1674469697
65,bredasdorp,-34.5322,20.0403,30.19,42,3,2.97,ZA,1674469698
66,faya,18.3851,42.4509,19.29,51,7,3.96,SA,1674469698
67,kapaa,22.0752,-159.319,21.73,93,5,3.17,US,1674469699
68,narsaq,60.9167,-46.05,-12.88,67,100,3.63,GL,1674469700
69,khatanga,71.9667,102.5,-43.93,99,55,0.7,RU,1674469700
70,salalah,17.0151,54.0924,26.05,57,40,5.14,OM,1674469700
71,souillac,-20.5167,57.5167,27.21,78,75,4.12,MU,1674469701
72,castro,-24.7911,-50.0119,18.36,90,100,0.35,BR,1674469701
73,sheltozero,61.3667,35.3667,-10.0,96,81,1.8,RU,1674469702
74,chumikan,54.7183,135.315,-29.63,85,99,5.56,RU,1674469703
75,islamkot,24.6997,70.177,23.49,20,4,6.56,PK,1674469704
76,upata,8.0086,-62.3989,20.66,81,91,3.71,VE,1674469704
77,quievrain,50.4074,3.6835,3.98,86,92,4.47,BE,1674469705
78,arman,59.7,150.1667,-25.58,86,47,4.27,RU,1674469705
79,kirakira,-10.4544,161.9205,25.93,82,100,1.73,SB,1674469706
80,bac lieu,9.285,105.7244,27.64,69,99,7.67,VN,1674469706
81,bulgan,48.8125,103.5347,-29.59,90,3,1.93,MN,1674469706
82,nikolskoye,59.7035,30.7861,-4.06,91,84,0.36,RU,1674469707
83,muros,42.7762,-9.0603,8.94,55,11,4.84,ES,1674469707
84,bargarh,21.3333,83.6167,29.88,22,22,1.5,IN,1674469708
85,lalmohan,22.3384,90.7419,26.1,41,25,5.08,BD,1674469709
86,wattegama,6.7989,81.4808,27.2,73,100,3.44,LK,1674469553
87,kodiak,57.79,-152.4072,1.73,93,100,1.54,US,1674469710
88,okhotsk,59.3833,143.3,-29.18,87,71,3.41,RU,1674469710
89,hobart,-42.8794,147.3294,18.92,79,75,4.12,AU,1674469559
90,dikson,73.5069,80.5464,-25.42,92,88,10.65,RU,1674469711
91,camana,-16.6228,-72.7111,21.58,88,22,2.12,PE,1674469712
92,georgetown,5.4112,100.3354,29.97,77,20,2.06,MY,1674469713
93,san rafael,-34.6177,-68.3301,21.45,46,0,1.1,AR,1674469713
94,honningsvag,70.9821,25.9704,0.86,64,81,11.32,NO,1674469714
95,paris,48.8534,2.3488,2.82,85,100,5.14,FR,1674469466
96,port elizabeth,-33.918,25.5701,29.06,74,20,6.69,ZA,1674469715
97,kismayo,-0.3582,42.5454,28.72,67,22,8.85,SO,1674469715
98,east london,-33.0153,27.9116,30.52,54,0,6.69,ZA,1674469552
99,maniitsoq,65.4167,-52.9,-5.26,94,100,1.98,GL,1674469717
100,cidreira,-30.1811,-50.2056,23.36,81,1,1.27,BR,1674469717
101,tessalit,20.1986,1.0114,23.91,10,0,3.31,ML,1674469718
102,saint george,37.1041,-113.5841,0.7,55,100,2.57,US,1674469719
103,hofn,64.2539,-15.2082,-2.99,68,20,2.06,IS,1674469719
104,puerto ayora,-0.7393,-90.3518,21.97,98,91,0.45,EC,1674469720
105,noumea,-22.2763,166.4572,27.78,99,100,1.32,NC,1674469439
106,ilulissat,69.2167,-51.1,-8.99,73,100,6.17,GL,1674469720
107,saldanha,-33.0117,17.9442,26.03,74,26,5.01,ZA,1674469721
108,hermanus,-34.4187,19.2345,25.45,65,0,4.48,ZA,1674469721
109,porto nacional,-10.7081,-48.4172,21.0,95,97,0.56,BR,1674469722
110,upernavik,72.7868,-56.1549,-21.69,97,100,2.3,GL,1674469722
111,navrongo,10.8956,-1.0921,32.99,13,1,2.68,GH,1674469724
112,constitucion,-35.3333,-72.4167,14.61,73,0,1.7,CL,1674469724
113,mayumba,-3.432,10.6554,26.94,82,100,1.76,GA,1674469725
114,butaritari,3.0707,172.7902,26.95,79,66,5.17,KI,1674469725
115,verkhnyaya inta,65.9811,60.3094,-6.74,94,99,8.62,RU,1674469726
116,mayo,38.8876,-76.5119,4.52,93,100,2.57,US,1674469537
117,aktau,43.65,51.2,4.32,49,1,6.31,KZ,1674469727
118,russas,-4.9403,-37.9758,25.6,82,83,1.88,BR,1674469728
119,kavieng,-2.5744,150.7967,28.29,77,100,6.56,PG,1674469728
120,san luis,-33.295,-66.3356,20.96,59,0,3.17,AR,1674469729
121,ardakan,32.31,54.0175,6.62,35,2,2.58,IR,1674469729
122,yar-sale,66.8333,70.8333,-15.2,97,97,3.08,RU,1674469730
123,havre-saint-pierre,50.2334,-63.5986,-7.0,85,100,0.0,CA,1674469730
124,mount gambier,-37.8333,140.7667,16.65,90,100,3.68,AU,1674469501
125,bentiu,9.2333,29.8333,35.86,7,30,4.15,SS,1674469731
126,hlotse,-28.8718,28.045,29.08,15,1,5.15,LS,1674469732
127,constantine,36.365,6.6147,4.67,81,75,2.57,DZ,1674469732
128,san quintin,30.4833,-115.95,12.57,72,92,2.33,MX,1674469733
129,bubaque,11.2833,-15.8333,22.87,71,6,4.2,GW,1674469733
130,yumen,40.2833,97.2,-11.68,33,0,1.2,CN,1674469734
131,tiznit,29.5833,-9.5,16.1,28,0,0.13,MA,1674469734
132,marshfield,44.6689,-90.1718,-7.51,93,100,3.6,US,1674469735
133,tambo,-14.8,-73.9167,3.26,86,84,1.81,PE,1674469735
134,poum,-20.2333,164.0167,26.15,88,100,2.66,NC,1674469736
135,lebu,-37.6167,-73.65,12.97,92,3,2.7,CL,1674469736
136,leh,34.1667,77.5833,-10.78,53,6,0.7,IN,1674469737
137,sabang,5.8933,95.3214,26.82,76,83,7.01,ID,1674469737
138,bela,25.9333,81.9833,27.2,37,12,0.42,IN,1674469738
139,pemba,-12.974,40.5178,30.39,66,75,6.69,MZ,1674469738
140,sampit,-2.5333,112.95,25.8,90,100,1.23,ID,1674469738
141,axim,4.8699,-2.2405,29.16,68,12,2.91,GH,1674469739
142,fort beaufort,-32.7748,26.6338,32.17,38,1,2.52,ZA,1674469740
143,deputatskiy,69.3,139.9,-39.75,100,75,0.79,RU,1674469740
144,bethel,41.3712,-73.414,3.34,87,100,3.6,US,1674469620
145,elliot,-31.3333,27.85,29.31,26,11,4.06,ZA,1674469741
146,adeje,28.1227,-16.726,17.61,59,20,9.26,ES,1674469742
147,hatillo,18.4863,-66.8254,22.27,86,4,0.89,PR,1674469742
148,marawi,7.9986,124.2928,19.7,98,100,1.08,PH,1674469743
149,grindavik,63.8424,-22.4338,-2.74,74,0,3.6,IS,1674469743
150,lata,40.1629,-8.3327,8.93,50,2,2.23,PT,1674469744
151,sembe,1.6481,14.5806,32.63,36,90,1.95,CG,1674469745
152,prince rupert,54.3161,-130.3201,6.83,92,100,9.26,CA,1674469745
153,gallup,35.5281,-108.7426,-2.58,79,100,0.45,US,1674469746
154,tasiilaq,65.6145,-37.6368,-6.91,56,45,2.34,GL,1674469746
155,waddan,29.1614,16.139,16.21,19,0,3.03,LY,1674469747
156,vysokogornyy,50.1167,139.15,-34.59,100,65,0.7,RU,1674469747
157,uvinza,-5.1036,30.3911,25.48,69,79,1.9,TZ,1674469748
158,tiksi,71.6872,128.8694,-31.43,95,100,1.93,RU,1674469748
159,naze,28.3667,129.4833,16.51,74,45,6.33,JP,1674469607
160,toowoomba,-27.55,151.9667,20.7,82,74,1.79,AU,1674469749
161,beisfjord,68.3751,17.5988,5.03,86,100,16.19,NO,1674469750
162,lindi,-10.0,39.7167,25.44,86,100,1.77,TZ,1674469750
163,bastia,42.6667,9.3333,8.89,89,75,1.54,FR,1674469741
164,port hardy,50.6996,-127.4199,4.1,93,100,7.2,CA,1674469751
165,abja-paluoja,58.1253,25.3497,-4.05,84,98,1.01,EE,1674469752
166,kiunga,-6.1219,141.2906,24.63,96,100,0.37,PG,1674469752
167,lavrentiya,65.5833,-171.0,-27.38,96,18,5.83,RU,1674469752
168,tingi,-11.3,35.0333,18.97,91,100,1.55,TZ,1674469753
169,markala,13.7021,-6.0659,29.26,10,70,6.05,ML,1674469753
170,howard springs,-12.497,131.047,24.95,97,100,1.27,AU,1674469754
171,miramar,25.9873,-80.2323,23.89,93,0,2.57,US,1674469755
172,yerbogachen,61.2767,108.0108,-36.68,99,98,2.01,RU,1674469756
173,kemise,10.7167,39.8667,25.21,33,64,4.36,ET,1674469757
174,ekhabi,53.5102,142.9671,-30.91,92,56,6.23,RU,1674469757
175,talalayivka,50.9578,31.9209,1.51,61,23,3.95,UA,1674469758
176,harlingen,26.1906,-97.6961,17.95,87,0,3.6,US,1674469758
177,wellington,-41.2866,174.7756,15.81,83,4,5.66,NZ,1674469759
178,abong mbang,3.9833,13.1833,31.83,19,96,1.91,CM,1674469759
179,bambous virieux,-20.3428,57.7575,27.14,78,75,4.12,MU,1674469760
180,makakilo city,21.3469,-158.0858,23.16,80,0,2.57,US,1674469760
181,provideniya,64.3833,-173.3,-20.46,79,53,7.71,RU,1674469761
182,otuzco,-7.9,-78.5833,9.16,90,98,0.76,PE,1674469761
183,limon,10.0,-83.0333,21.14,85,5,2.29,CR,1674469762
184,tilichiki,60.4667,166.1,-14.02,84,100,4.52,RU,1674469762
185,mizan teferi,6.9833,35.5833,30.38,24,54,1.2,ET,1674469763
186,leningradskiy,69.3833,178.4167,-34.26,92,54,3.51,RU,1674469763
187,daru,-9.0763,143.2092,27.04,80,99,3.25,PG,1674469764
188,katsuura,35.1333,140.3,8.77,86,99,5.41,JP,1674469764
189,pangnirtung,66.1451,-65.7125,-28.88,95,97,2.82,CA,1674469765
190,palasa,18.7667,84.4167,27.3,39,27,4.47,IN,1674469765
191,kaitangata,-46.2817,169.8464,9.59,81,2,1.94,NZ,1674469766
192,san jose,37.3394,-121.895,10.93,46,0,6.69,US,1674469618
193,muzhi,65.3667,64.6667,-11.03,87,21,3.33,RU,1674469766
194,odesskoye,54.2111,72.9651,-10.54,95,98,4.62,RU,1674469767
195,kruisfontein,-34.0033,24.7314,33.62,34,0,3.7,ZA,1674469767
196,fengcheng,40.4536,124.0717,-16.97,38,6,7.87,CN,1674469768
197,saint-philippe,-21.3585,55.7679,25.77,86,100,4.32,RE,1674469769
198,emerald,-23.5333,148.1667,29.32,50,89,6.67,AU,1674469769
199,itarema,-2.9248,-39.9167,25.77,83,29,2.88,BR,1674469770
200,rabo de peixe,37.8,-25.5833,14.73,63,75,6.17,PT,1674469770
201,ilo,-17.6394,-71.3375,21.31,85,38,1.8,PE,1674469772
202,abnub,27.2696,31.1511,20.79,31,2,4.68,EG,1674469772
203,port lincoln,-34.7333,135.8667,17.94,84,29,6.69,AU,1674469773
204,san vicente,-26.6167,-54.1333,19.08,99,17,0.33,AR,1674469774
205,carnarvon,-24.8667,113.6333,24.9,74,38,10.77,AU,1674469774
206,mayahi,13.9553,7.6712,29.6,7,26,5.16,NE,1674469775
207,longyearbyen,78.2186,15.6401,-1.09,80,100,7.2,SJ,1674469775
208,portland,45.5234,-122.6762,5.26,92,100,1.54,US,1674469596
209,norman wells,65.282,-126.8329,-19.98,77,100,0.0,CA,1674469776
210,kiruna,67.8557,20.2251,-3.49,80,0,8.75,SE,1674469777
211,lompoc,34.6391,-120.4579,7.18,69,0,8.49,US,1674469777
212,richards bay,-28.783,32.0377,33.87,39,4,5.24,ZA,1674469778
213,trairi,-3.2778,-39.2689,25.54,85,21,2.1,BR,1674469778
214,lircay,-12.9896,-74.7205,7.16,90,88,1.01,PE,1674469779
215,spassk,52.747,87.7545,-9.58,97,100,1.02,RU,1674469780
216,jalu,29.0331,21.5482,16.92,25,0,4.28,LY,1674469780
217,sao filipe,14.8961,-24.4956,21.21,61,19,4.34,CV,1674469783
218,ostrovnoy,68.0531,39.5131,-4.54,74,88,15.55,RU,1674469783
219,chippewa falls,44.9369,-91.3929,-7.9,93,100,4.63,US,1674469784
220,boa vista,2.8197,-60.6733,22.99,83,75,4.63,BR,1674469784
221,tabas,33.5959,56.9244,8.94,24,0,2.85,IR,1674469785
222,aizpute,56.7167,21.6,-2.43,81,35,0.6,LV,1674469786
223,teluknaga,-6.0989,106.6381,31.02,70,75,5.66,ID,1674469786
224,codrington,-38.2667,141.9667,16.82,95,76,3.59,AU,1674469787
225,chokurdakh,70.6333,147.9167,-44.64,100,70,0.94,RU,1674469787
226,saskylakh,71.9167,114.0833,-29.23,86,100,0.92,RU,1674469788
227,manavalakurichi,8.1333,77.3,28.32,58,100,2.18,IN,1674469788
228,rawson,-43.3002,-65.1023,15.99,68,7,5.61,AR,1674469789
229,warrnambool,-38.3833,142.4833,16.91,89,36,4.44,AU,1674469710
230,pasni,25.2631,63.471,19.78,23,0,8.76,PK,1674469790
231,fare,-16.7,-151.0167,25.58,78,100,5.88,PF,1674469790
232,maceio,-9.6658,-35.7353,25.69,94,20,2.06,BR,1674469790
233,ballina,-28.8667,153.5667,22.1,98,68,4.26,AU,1674469791
234,cukai,4.25,103.4167,27.97,90,97,3.49,MY,1674469504
235,pilar,-9.5972,-35.9567,24.96,80,9,2.16,BR,1674469792
236,yulara,-25.2406,130.9889,33.57,23,76,2.15,AU,1674469792
237,kyshtovka,56.555,76.6271,-7.49,93,100,4.0,RU,1674469793
238,tutoia,-2.7619,-42.2744,25.38,87,69,4.01,BR,1674469793
239,thompson,55.7435,-97.8558,-22.91,84,0,3.09,CA,1674469794
240,pringsewu,-5.3582,104.9744,23.95,94,100,1.89,ID,1674469794
241,barra,-11.0894,-43.1417,21.81,89,81,1.66,BR,1674469795
242,ancud,-41.8697,-73.8203,12.62,93,11,2.17,CL,1674469795
243,smithers,54.7804,-127.1743,-2.82,100,100,2.06,CA,1674469796
244,cherskiy,68.75,161.3,-30.77,92,100,1.51,RU,1674469796
245,margate,51.3813,1.3862,5.94,82,100,1.34,GB,1674469797
246,griffith,41.5284,-87.4237,-1.08,90,100,4.63,US,1674469798
247,aguimes,27.9054,-15.4461,18.7,52,75,9.26,ES,1674469798
248,ribeira grande,38.5167,-28.7,16.54,88,75,13.41,PT,1674469799
249,thinadhoo,0.5333,72.9333,27.12,72,81,1.75,MV,1674469799
250,magdalena,14.1999,121.429,26.31,87,81,3.44,PH,1674469800
251,aklavik,68.2191,-135.0107,-23.32,91,100,5.22,CA,1674469800
252,pemangkat,1.1667,108.9667,25.86,86,100,2.07,ID,1674469801
253,nishihara,26.1842,127.7558,20.6,83,75,4.12,JP,1674469802
254,davila,18.4726,120.5763,27.99,84,9,7.98,PH,1674469802
255,kirovskiy,45.0917,133.5136,-26.75,83,100,3.51,RU,1674469803
256,vila velha,-20.3297,-40.2925,24.97,94,75,2.57,BR,1674469804
257,torbay,47.6666,-52.7314,-1.52,93,75,7.72,CA,1674469805
258,talnakh,69.4865,88.3972,-30.58,91,49,0.59,RU,1674469806
259,kupang,-10.1667,123.5833,26.32,83,40,2.57,ID,1674469807
260,turukhansk,65.8167,87.9833,-26.42,87,92,4.33,RU,1674469808
261,sudak,44.85,34.9667,8.44,64,17,3.75,UA,1674469809
262,lagoa,39.05,-27.9833,15.48,81,93,13.86,PT,1674469810
263,nara,34.6851,135.8049,7.62,59,100,2.14,JP,1674469577
264,fairbanks,64.8378,-147.7164,-24.02,74,100,2.06,US,1674469811
265,nelson bay,-32.7167,152.15,23.33,90,46,0.45,AU,1674469811
266,niono,14.2526,-5.993,31.53,9,68,6.54,ML,1674469811
267,linhares,-19.3911,-40.0722,25.44,88,100,3.29,BR,1674469812
268,bilma,18.6853,12.9164,28.07,8,7,2.5,NE,1674469813
269,moose factory,51.2585,-80.6094,-6.0,86,100,3.09,CA,1674469813
270,siocon,7.7061,122.1353,25.57,91,100,5.3,PH,1674469576
271,ghanzi,-21.5667,21.7833,31.01,30,42,4.95,BW,1674469814
272,cabedelo,-6.9811,-34.8339,27.37,73,17,4.75,BR,1674469815
273,nanortalik,60.1432,-45.2371,-4.66,56,100,3.9,GL,1674469815
274,talcahuano,-36.7167,-73.1167,14.82,88,0,1.03,CL,1674469816
275,sorland,67.667,12.6934,4.92,83,100,14.62,NO,1674469817
276,schiffdorf,53.5333,8.65,3.97,82,99,2.68,DE,1674469817
277,matara,5.9485,80.5353,27.68,75,91,3.77,LK,1674469629
278,aleksandrov gay,50.147,48.5704,-1.46,53,57,2.14,RU,1674469818
279,coruripe,-10.1256,-36.1756,27.65,74,14,5.0,BR,1674469819
280,sile,41.1754,29.6133,11.43,63,93,1.34,TR,1674469819
281,kerema,-7.9631,145.7785,26.0,90,100,3.88,PG,1674469820
282,machinga,-15.1685,35.3,21.6,89,100,1.53,MW,1674469820
283,yarmouth,41.7057,-70.2286,10.61,97,100,4.12,US,1674469821
284,dhidhdhoo,6.8833,73.1,26.66,71,64,3.15,MV,1674469822
285,tromso,69.6496,18.957,3.01,81,75,19.03,NO,1674469823
286,nome,64.5011,-165.4064,-16.96,60,0,4.12,US,1674469823
287,grand gaube,-20.0064,57.6608,27.22,78,100,2.24,MU,1674469824
288,arequipa,-16.3989,-71.535,14.4,83,46,0.46,PE,1674469824
289,miri,4.4148,114.0089,28.08,83,40,2.57,MY,1674469596
290,nalchiti,22.6333,90.2833,28.09,32,26,3.8,BD,1674469825
291,senno,59.5336,33.9167,-5.41,93,68,0.79,RU,1674469825
292,poya,-21.35,165.15,25.72,89,97,0.81,NC,1674469827
293,arlit,18.7369,7.3853,30.16,7,0,3.44,NE,1674469827
294,petropavlovsk-kamchatskiy,53.0452,158.6483,-12.67,79,75,4.0,RU,1674469800
295,nadvoitsy,63.8667,34.3167,-9.48,92,13,3.91,RU,1674469828
296,okha,53.5739,142.9478,-30.95,93,49,6.13,RU,1674469829
297,maragogi,-9.0122,-35.2225,27.73,72,42,4.25,BR,1674469829
298,sosnovo-ozerskoye,52.5249,111.5418,-35.39,93,7,3.49,RU,1674469831
299,bisira,8.5196,-81.7115,13.21,95,47,2.57,PA,1674469831
300,lodja,-3.4833,23.4333,34.28,36,87,1.04,CD,1674469832
301,port-gentil,-0.7193,8.7815,29.98,70,40,2.06,GA,1674469833
302,vila franca do campo,37.7167,-25.4333,15.23,75,31,6.93,PT,1674469834
303,nsoko,-27.0333,31.95,34.59,31,39,3.22,SZ,1674469835
304,denpasar,-8.65,115.2167,30.81,70,20,3.09,ID,1674469412
305,sri aman,1.2376,111.4621,30.03,79,20,0.0,MY,1674469835
306,likasi,-10.9814,26.7333,22.62,77,79,4.65,CD,1674469836
307,kieta,-6.2167,155.6333,26.14,83,95,1.52,PG,1674469837
308,isangel,-19.55,169.2667,27.12,86,69,1.34,VU,1674469837
309,langgons,50.5,8.6667,2.96,87,68,0.45,DE,1674469838
310,ansbach,49.3,10.5833,0.9,93,100,3.6,DE,1674469838
311,sao joao da barra,-21.6403,-41.0511,25.05,86,97,2.95,BR,1674469839
312,padang,-0.9492,100.3543,24.03,96,100,3.58,ID,1674469759
313,sembakung,3.8167,117.25,24.5,96,93,0.93,ID,1674469840
314,henties bay,-22.116,14.2845,20.59,78,52,4.84,NA,1674469841
315,manzhouli,49.6,117.4333,-30.27,87,19,6.63,CN,1674469842
316,havoysund,70.9963,24.6622,1.13,73,67,13.88,NO,1674469844
317,nola,40.922,14.5329,9.24,93,68,2.87,IT,1674469844
318,korla,41.7597,86.1469,-10.5,73,0,1.32,CN,1674469845
319,marathon,44.9,-89.7668,-8.14,90,100,3.6,US,1674469846
320,dodge city,37.7528,-100.0171,-8.77,88,0,2.06,US,1674469846
321,taltal,-25.4,-70.4833,19.52,80,66,0.58,CL,1674469847
322,saint-pierre,-21.3393,55.4781,25.82,73,75,1.03,RE,1674469847
323,pimentel,-6.8367,-79.9342,19.16,88,0,3.09,PE,1674469848
324,ingham,42.6,-84.3833,-1.03,93,100,1.54,US,1674469848
325,san carlos de bariloche,-41.1456,-71.3082,9.02,81,0,2.06,AR,1674469849
326,bereda,43.2686,-7.5406,5.23,100,4,3.16,ES,1674469850
327,lander,42.833,-108.7307,-8.55,86,100,0.0,US,1674469852
328,tahta,26.7693,31.5021,22.01,23,1,4.91,EG,1674469852
329,clyde river,70.4692,-68.5914,-31.87,68,75,9.77,CA,1674469853
330,pochutla,15.7432,-96.4661,21.57,71,0,1.32,MX,1674469853
331,benalla,-36.55,145.9833,20.48,48,47,3.34,AU,1674469605
332,metro,-5.1131,105.3067,24.15,93,100,1.61,ID,1674469854
333,santa fe,-31.6333,-60.7,25.56,74,18,0.89,AR,1674469855
334,cascais,38.6979,-9.4215,13.62,48,0,9.83,PT,1674469855
335,dakar,14.6937,-17.4441,22.49,83,0,2.06,SN,1674469856
336,chuy,-33.6971,-53.4616,20.83,73,79,1.52,UY,1674469856
337,zhigalovo,54.8097,105.1578,-38.43,100,16,1.39,RU,1674469857
338,ust-tarka,55.5672,75.705,-10.59,96,96,3.76,RU,1674469857
339,esil,51.9556,66.4042,-10.7,96,97,3.24,KZ,1674469858
340,brainerd,46.358,-94.2008,-9.99,85,100,4.12,US,1674469858
341,aasiaat,68.7098,-52.8699,-18.24,97,100,2.22,GL,1674469859
342,arkhangelsk,64.5401,40.5433,-5.94,68,0,3.0,RU,1674469860
343,waverly,42.7392,-84.6208,-0.12,93,100,1.54,US,1674469860
344,nongstoin,25.5167,91.2667,14.09,53,64,1.93,IN,1674469861
345,uhlove,44.8215,33.6045,4.45,68,8,2.07,UA,1674469862
346,airai,-8.9266,125.4092,16.74,93,100,0.47,TL,1674469862
347,bongandanga,1.5,21.05,39.05,17,61,1.17,CD,1674469863
348,ukiah,39.1502,-123.2078,6.35,93,0,0.0,US,1674469863
349,norrtalje,59.758,18.705,-5.9,76,7,4.31,SE,1674469864
350,caravelas,-17.7125,-39.2481,26.06,83,100,3.96,BR,1674469865
351,port hedland,-20.3167,118.5667,32.03,58,15,6.69,AU,1674469865
352,sur,22.5667,59.5289,20.96,40,0,6.08,OM,1674469866
353,poltavka,54.3663,71.7632,-11.39,95,89,4.51,RU,1674469866
354,anadyr,64.75,177.4833,-20.56,58,0,3.0,RU,1674469727
355,te anau,-45.4167,167.7167,7.62,89,6,1.79,NZ,1674469868
356,igbo ora,7.4333,3.2833,34.44,38,81,1.47,NG,1674469868
357,hanchuan,30.65,113.7667,7.06,36,56,9.01,CN,1674469869
358,olafsvik,64.8945,-23.7142,1.8,63,100,1.88,IS,1674469869
359,trelew,-43.249,-65.3051,17.79,60,5,7.76,AR,1674469869
360,shimoda,34.6667,138.95,5.61,82,99,4.05,JP,1674469870
361,konstantinovka,49.6167,127.9833,-27.88,98,100,2.19,RU,1674469871
362,baykit,61.67,96.37,-25.51,99,100,1.28,RU,1674469871
363,geraldton,-28.7667,114.6,24.23,73,75,6.69,AU,1674469872
364,yerofey pavlovich,53.9667,121.9667,-31.31,94,100,1.81,RU,1674469872
365,kayes,14.0,-11.0,30.61,12,1,1.22,ML,1674469873
366,imeni poliny osipenko,52.4201,136.4853,-27.41,97,100,2.25,RU,1674469874
367,edgewater,28.9889,-80.9023,17.84,91,31,4.17,US,1674469874
368,broken hill,-31.95,141.4333,28.46,21,62,5.09,AU,1674469817
369,roebourne,-20.7833,117.1333,30.78,57,4,5.77,AU,1674469875
370,bouca,6.5105,18.2733,32.29,13,100,1.98,CF,1674469876
371,hopelchen,19.7667,-89.85,19.42,98,15,1.12,MX,1674469876
372,patan,27.6667,85.3333,20.21,22,20,5.66,NP,1674469285
373,agen,44.2,0.6333,1.42,86,100,3.6,FR,1674469877
374,san pedro,14.35,121.0167,28.57,71,40,4.12,PH,1674469824
375,westport,41.1415,-73.3579,4.07,90,100,6.17,US,1674469878
376,vryheid,-27.7695,30.7917,28.57,27,59,4.53,ZA,1674469879
377,tibiri,13.5627,7.0485,29.19,15,0,7.2,NE,1674469879
378,novoilinsk,51.6829,108.7143,-36.24,97,10,1.24,RU,1674469880
379,gerash,27.6652,54.1371,13.08,58,86,1.41,IR,1674469880
380,plonsk,52.6235,20.3755,1.54,88,100,3.15,PL,1674469881
381,sola,-13.8833,167.55,27.83,75,97,4.91,VU,1674469881
382,ambatolampy,-19.3833,47.4167,16.75,95,100,2.53,MG,1674469881
383,roald,62.5833,6.1333,6.16,81,75,6.69,NO,1674469882
384,cayenne,4.9333,-52.3333,25.02,83,75,3.6,GF,1674469883
385,bandarbeyla,9.4942,50.8122,25.65,65,72,9.51,SO,1674469884
386,ust-omchug,61.15,149.6333,-29.97,98,100,3.39,RU,1674469884
387,coralville,41.6764,-91.5805,-6.87,89,100,5.66,US,1674469885
388,kargasok,59.0556,80.8572,-10.65,97,97,3.17,RU,1674469885
389,rio gallegos,-51.6226,-69.2181,13.03,67,75,9.26,AR,1674469886
390,sobolevo,54.4299,31.8996,0.26,86,90,1.86,RU,1674469887
391,dongsheng,39.8161,109.9776,-20.12,39,32,8.92,CN,1674469888
392,biak,-0.9131,122.8766,25.5,82,88,0.19,ID,1674469888
393,yuzhno-kurilsk,44.0306,145.8556,-6.27,66,97,3.83,RU,1674469889
394,owo,7.1962,5.5868,35.85,28,12,1.02,NG,1674469890
395,san ignacio,17.1561,-89.0714,21.08,100,0,0.0,BZ,1674469890
396,kudahuvadhoo,2.6708,72.8944,27.09,74,75,3.96,MV,1674469891
397,teeli,51.0333,90.2333,-24.64,92,100,0.75,RU,1674469891
398,lhokseumawe,5.1801,97.1507,27.1,78,72,1.85,ID,1674469626
399,tanout,14.9709,8.8879,29.49,7,22,4.55,NE,1674469892
400,greenville,35.6127,-77.3663,10.09,97,100,1.54,US,1674469893
401,svetlyy,54.675,20.1347,2.76,68,8,2.6,RU,1674469894
402,magrath,49.4167,-112.8686,-5.16,74,8,5.14,CA,1674469894
403,inhambane,-23.865,35.3833,32.99,55,40,6.17,MZ,1674469895
404,viedma,-40.8135,-62.9967,18.19,63,0,3.22,AR,1674469895
405,decatur,39.8403,-88.9548,-1.08,80,100,4.63,US,1674469896
406,coos bay,43.3665,-124.2179,2.74,99,20,2.57,US,1674469896
407,tallahassee,30.4383,-84.2807,8.91,92,0,3.09,US,1674469879
408,saint-louis,16.3333,-15.0,20.8,22,0,1.09,SN,1674469897
409,pekalongan,-6.8886,109.6753,27.78,84,100,3.19,ID,1674469898
410,kutum,14.2,24.6667,26.91,7,60,5.61,SD,1674469898
411,rocha,-34.4833,-54.3333,22.56,69,36,2.96,UY,1674469900
412,balkanabat,39.5108,54.3671,4.57,35,0,0.34,TM,1674469900
413,pajic polje,43.9758,17.5275,3.94,99,100,0.5,BA,1674469901
414,karratha,-20.7377,116.8463,30.05,59,1,5.1,AU,1674469901
415,arroyo,41.6096,-4.7969,3.11,76,0,1.54,ES,1674469902
416,miles city,46.4083,-105.8406,-1.46,86,75,6.69,US,1674469903
417,igrim,63.1906,64.4162,-15.02,97,47,2.08,RU,1674469903
418,kastamonu,41.5,33.6667,10.01,36,7,0.63,TR,1674469904
419,mwinilunga,-11.7358,24.4293,23.05,63,94,5.58,ZM,1674469904
420,conceicao da barra,-18.5933,-39.7322,25.38,89,100,3.32,BR,1674469905
421,coachella,33.6803,-116.1739,12.97,20,0,7.72,US,1674469906
422,comodoro rivadavia,-45.8667,-67.5,15.92,55,0,5.66,AR,1674469906
423,tak bai,6.2595,102.0546,29.02,87,68,3.17,TH,1674469907
424,la ronge,55.1001,-105.2842,-11.86,79,100,4.63,CA,1674469907
425,ibra,22.6906,58.5334,22.36,30,23,1.27,OM,1674469908
426,alihe,50.5667,123.7167,-30.79,88,68,2.35,CN,1674469909
427,mongo,12.1844,18.693,33.84,9,100,2.67,TD,1674469909
428,taoudenni,22.6783,-3.9836,21.81,18,0,4.93,ML,1674469909
429,sibolga,1.7427,98.7792,24.09,92,100,0.93,ID,1674469910
430,quang ngai,15.1167,108.8,22.66,91,97,1.24,VN,1674469806
431,aswan,24.0934,32.907,23.61,27,0,4.12,EG,1674469912
432,bahia de caraquez,-0.6,-80.4167,24.1,81,63,0.87,EC,1674469912
433,cisarua,-6.6527,106.471,19.34,93,96,2.4,ID,1674469913
434,wukari,7.85,9.7833,36.32,10,36,2.95,NG,1674469913
435,ginir,7.1333,40.7,24.88,22,90,4.78,ET,1674469914
436,agadez,19.75,10.25,26.35,9,0,2.91,NE,1674469914
437,kensington,-33.9167,151.2167,21.84,77,75,4.12,AU,1674469915
438,nichinan,31.6,131.3667,10.82,88,98,4.55,JP,1674469864
439,andra,62.5147,65.8878,-18.09,99,16,1.82,RU,1674469916
440,teguldet,57.3064,88.1667,-15.63,99,100,1.0,RU,1674469917
441,itoman,26.1247,127.6694,21.01,81,75,4.12,JP,1674469835
442,shelopugino,51.6514,117.5599,-36.0,99,42,1.25,RU,1674469918
443,terrace bay,48.7834,-87.1,-1.24,83,99,8.51,CA,1674469919
444,malaya serdoba,52.4661,44.9512,-5.1,79,93,2.17,RU,1674469919
445,haines junction,60.7522,-137.5108,-10.0,98,98,0.9,CA,1674469920
446,sakhon nakhon,17.1612,104.1472,30.97,20,0,1.54,TH,1674469920
447,cervo,43.6702,-7.4101,9.98,66,16,5.3,ES,1674469922
448,nouadhibou,20.931,-17.0347,17.99,59,0,10.8,MR,1674469922
449,rancho palos verdes,33.7445,-118.387,12.02,41,4,1.79,US,1674469923
450,shorapur,16.5167,76.75,29.28,28,58,4.1,IN,1674469924
451,muravlenko,63.7898,74.523,-17.44,97,99,3.16,RU,1674469924
452,cozumel,20.5083,-86.9458,24.04,88,0,2.57,MX,1674469925
453,pryazha,61.6926,33.6216,-12.43,96,100,1.82,RU,1674469926
454,batagay-alyta,67.8006,130.4114,-34.41,100,96,1.33,RU,1674469927
455,coquimbo,-29.9533,-71.3436,16.85,88,100,1.03,CL,1674469927
456,sozimskiy,59.7418,52.2482,-6.4,97,89,1.64,RU,1674469928
457,meulaboh,4.1363,96.1285,24.03,94,100,3.24,ID,1674469928
458,sault sainte marie,46.5168,-84.3333,-2.84,89,100,2.57,CA,1674469929
459,bogale,16.2833,95.4,29.64,23,3,1.55,MM,1674469929
460,kathmandu,27.7167,85.3167,20.12,22,20,5.66,NP,1674469531
461,mangrol,21.1167,70.1167,24.11,38,0,5.81,IN,1674469930
462,kaohsiung,22.6163,120.3133,22.97,73,20,3.6,TW,1674469666
463,faqirwali,29.4663,73.034,19.9,34,80,4.76,PK,1674469931
464,ozu,33.5,132.55,6.21,92,98,2.81,JP,1674469932
465,general pico,-35.6566,-63.7568,21.21,58,0,3.57,AR,1674469933
466,vershino-darasunskiy,52.35,115.5167,-32.85,93,27,2.1,RU,1674469933
467,nouakchott,18.0858,-15.9785,18.96,29,0,3.7,MR,1674469934
468,jacareacanga,-6.2222,-57.7528,22.03,100,100,0.22,BR,1674469934
469,falavarjan,32.5553,51.5097,3.56,46,40,0.21,IR,1674469935
470,mirnyy,62.5353,113.9611,-32.82,91,100,5.39,RU,1674469935
471,taos,36.4072,-105.5731,-1.78,54,0,6.69,US,1674469936
472,oxapampa,-10.5775,-75.4017,12.62,97,93,1.57,PE,1674469937
473,sinnai,39.3042,9.2036,10.29,66,0,2.57,IT,1674469937
474,hasaki,35.7333,140.8333,5.68,81,100,5.98,JP,1674469918
475,sorong,-0.8833,131.25,27.42,75,97,2.78,ID,1674469938
476,yanam,16.7333,82.2167,25.69,53,12,3.6,IN,1674469939
477,houston,29.7633,-95.3633,8.32,68,40,5.66,US,1674469650
478,gagra,43.3283,40.2239,10.51,45,0,1.05,GE,1674469940
479,caiaponia,-16.9567,-51.8103,20.97,93,100,1.83,BR,1674469940
480,trofors,65.5333,13.4063,4.93,98,100,3.65,NO,1674469941
481,waipawa,-41.4122,175.5153,11.31,83,36,1.21,NZ,1674469941
482,rognan,67.0953,15.3878,6.08,95,97,3.17,NO,1674469942
483,ahuimanu,21.4447,-157.8378,23.81,84,20,2.57,US,1674469942
484,mehamn,71.0357,27.8492,1.97,64,0,12.86,NO,1674469943
485,fukuma,33.7667,130.4667,9.0,64,100,3.1,JP,1674469943
486,bonthe,7.5264,-12.505,29.19,59,100,2.18,SL,1674469944
487,sao mateus do sul,-25.8742,-50.3828,19.47,94,90,0.21,BR,1674469945
488,christchurch,-43.5333,172.6333,14.41,80,100,1.54,NZ,1674469659
489,nerchinskiy zavod,51.3088,119.61,-36.97,99,96,1.49,RU,1674469945
490,praia,14.9215,-23.5087,23.3,56,40,7.2,CV,1674469947
491,kavaratti,10.5669,72.642,26.7,72,17,5.69,IN,1674469947
492,jasper,37.2001,-94.3502,-1.31,86,0,1.54,US,1674469948
493,berlevag,70.8578,29.0864,2.0,69,0,18.01,NO,1674469949
494,frederick,39.4668,-77.3997,3.6,95,100,3.09,US,1674469949
495,tuy hoa,13.0833,109.3,23.71,89,29,3.46,VN,1674469758
496,rach gia,10.0167,105.0833,28.09,72,75,3.03,VN,1674469805
497,malino,15.1257,120.6727,29.68,58,20,1.03,PH,1674469951
498,hangzhou,30.2937,120.1614,6.95,89,100,4.02,CN,1674469820
499,prince george,53.9166,-122.753,-1.53,92,100,9.77,CA,1674469952
500,rennes,48.1667,-1.6667,3.65,87,0,3.6,FR,1674469953
501,vardo,70.3705,31.1107,-1.01,86,20,12.35,NO,1674469953
502,hualmay,-11.0964,-77.6139,21.14,81,84,2.78,PE,1674469954
503,zhigansk,66.7697,123.3711,-41.66,99,94,1.62,RU,1674469954
504,selfoss,63.9331,-20.9971,-6.05,79,100,2.96,IS,1674469775
505,madang,-5.2246,145.7966,25.98,84,100,0.82,PG,1674469955
506,chara,56.9064,118.2631,-33.7,81,94,0.8,RU,1674469956
507,ewa beach,21.3156,-158.0072,23.94,80,0,2.57,US,1674469956
508,ufimskiy,56.7084,58.0517,-9.08,94,100,1.06,RU,1674469957
509,hami,42.8,93.45,-9.81,33,0,2.27,CN,1674469957
510,chicama,-7.8447,-79.1469,18.3,74,92,1.0,PE,1674469958
511,mulchen,-37.7167,-72.2333,13.6,74,0,1.11,CL,1674469959
512,suntar,62.1444,117.6319,-30.61,87,100,4.9,RU,1674469959
513,mogadishu,2.0371,45.3438,28.93,74,20,9.26,SO,1674469960
514,victoria,22.2855,114.1577,21.08,83,11,1.34,HK,1674469801
515,grand-santi,4.25,-54.3833,21.89,99,98,0.84,GF,1674469961
516,quatre cocos,-20.2078,57.7625,27.06,80,100,2.47,MU,1674469961
517,shache,38.4167,77.2406,-8.25,75,34,2.24,CN,1674469962
518,porto walter,-8.2686,-72.7439,20.78,99,66,0.39,BR,1674469962
519,aquiraz,-3.9014,-38.3911,27.05,78,66,2.57,BR,1674469963
520,areka,7.0667,37.7,28.49,21,100,2.01,ET,1674469964
521,araouane,18.9048,-3.5265,25.03,9,0,5.43,ML,1674469965
522,yeppoon,-23.1333,150.7333,25.88,79,0,3.21,AU,1674469965
523,berbera,10.4396,45.0143,25.8,60,96,6.09,SO,1674469966
524,kemijarvi,66.7131,27.4306,-2.48,90,97,7.06,FI,1674469966
525,lucea,18.451,-78.1736,22.92,79,6,2.85,JM,1674469967
526,lakes entrance,-37.8811,147.981,19.53,93,27,3.66,AU,1674469967
527,monroe,43.1501,-77.6831,1.12,96,100,4.63,US,1674469968
528,kautokeino,69.0125,23.0412,-3.02,81,88,10.28,NO,1674469968
529,springdale,36.1867,-94.1288,-2.32,93,0,1.54,US,1674469968
530,zeya,53.75,127.2667,-34.41,93,92,1.92,RU,1674469969
531,vidim,56.4088,103.1106,-32.28,97,80,1.47,RU,1674469970
532,verkh-usugli,52.7,115.1667,-32.32,92,21,2.19,RU,1674469970
533,toppenish,46.3774,-120.3087,1.23,81,47,0.88,US,1674469971
534,bulandshahr,28.4,77.85,23.61,32,1,1.53,IN,1674469724
535,porosozero,62.7191,32.727,-7.08,95,99,3.28,RU,1674469972
536,batemans bay,-35.7167,150.1833,19.5,81,53,2.71,AU,1674469972
537,kloulklubed,7.0419,134.2556,24.28,81,100,10.3,PW,1674469973
538,karabash,55.4808,60.2157,-8.37,86,75,2.5,RU,1674469973
539,dingle,10.9995,122.6711,24.14,88,100,3.93,PH,1674469974
540,luderitz,-26.6481,15.1594,21.98,65,3,9.24,NA,1674469815
541,shingu,33.7333,135.9833,8.42,85,100,2.3,JP,1674469930
542,zhob,31.3411,69.4481,6.54,26,0,1.99,PK,1674469975
543,vestmannaeyjar,63.4427,-20.2734,0.55,59,75,5.14,IS,1674469782
544,sakaiminato,35.55,133.2333,6.99,87,75,2.06,JP,1674469724
545,umm kaddadah,13.6017,26.6876,29.76,6,24,8.42,SD,1674469977
546,turayf,31.6725,38.6637,15.14,47,0,6.17,SA,1674469977
547,pisco,-13.7,-76.2167,20.03,83,67,1.03,PE,1674469978
548,sistranda,63.7256,8.834,4.98,94,100,5.91,NO,1674469979
549,kalaleh,37.3807,55.4916,8.78,61,40,3.09,IR,1674469979
550,brae,60.3964,-1.353,9.19,86,100,10.19,GB,1674469980
551,dalbandin,28.8947,64.4101,9.05,23,0,3.08,PK,1674469980
552,calbuco,-41.768,-73.1273,9.56,84,0,3.26,CL,1674469981
553,sinnamary,5.3833,-52.95,24.63,86,63,6.87,GF,1674469981
554,san cristobal,7.7669,-72.225,18.1,88,100,1.86,VE,1674469982
555,vao,-22.6667,167.4833,26.16,84,98,2.12,NC,1674469982
556,santa rosa,14.3122,121.1114,28.99,76,56,4.29,PH,1674469816
557,severnyy,50.677,36.5532,0.02,64,0,6.0,RU,1674469983
558,iquitos,-3.7481,-73.2472,22.02,94,100,2.57,PE,1674469984
559,salvador,13.8333,-88.9167,18.92,88,4,1.12,SV,1674469985
560,ayia galini,35.1,24.6833,18.25,69,16,2.78,GR,1674469985
